{
"type": "FeatureCollection",
                                                                                
"features": [
{ "type": "Feature", "properties": { "id": 6, "libelle": "Branche cassée", "nom": "Mairie", "description": "Branche cassée sur un platane", "service": "Espaces verts", "demandeur":"M. Roger" , "date": "12 décembre 2013 12:27", "statut": "validée" }, "geometry": { "type": "Point", "coordinates": [ -1.27800756934247, 47.088336598092816 ] } }
,
{ "type": "Feature", "properties": { "id": 5, "libelle": "Esthétique", "nom": "Rond-Point des Templiers", "description": "Aménagement paysager du rond-point à améliorer", "service": "Espaces Verts", "demandeur":"M. Calibaut" , "date": "11 décembre 2013 18:45", "statut": "refusée" }, "geometry": { "type": "Point", "coordinates": [ -1.276718429719424, 47.079281003042588 ] } }
,
{ "type": "Feature", "properties": { "id": 4, "libelle": "Porte salle A14", "nom": "École Jacques Prévert", "description": "La porte de la salle A14 ne ferme plus", "service": "Bâtiments", "demandeur": "École Maternelle Jacques Prévert", "date": "8 décembre 2013 13:56", "statut": "terminée" }, "geometry": { "type": "Point", "coordinates": [ -1.287521341393422, 47.093648106175507 ] } }
,
{ "type": "Feature", "properties": { "id": 3, "libelle": "Poubelle", "nom": "Collège Cacault", "description": "Poubelle devant le collège à remplacer", "service": "Service technique", "demandeur": "Service interne", "date": "3 décembre 2013 15:14", "statut": "validée" }, "geometry": { "type": "Point", "coordinates": [ -1.288641991643245, 47.092100860659855 ] } }
,
{ "type": "Feature", "properties": { "id": 2, "libelle": "Panneau arraché", "nom": "Rue Berthou", "description": "Panneau sens unique au sol", "service": "Voirie", "demandeur":"Mme Lacaze" , "date": "1 décembre 2013 11:37", "statut": "terminée" }, "geometry": { "type": "Point", "coordinates": [ -1.281886743284168, 47.08675985059341 ] } }
,
{ "type": "Feature", "properties": { "id": 1, "libelle": "Robinet", "nom": "Mairie", "description": "Le robinet des toilettes du deuxième étage fuit", "service": "Bâtiments", "demandeur":"Service interne" , "date": "27 novembre 2013 09:43", "statut": "terminée" }, "geometry": { "type": "Point", "coordinates": [ -1.27800756934247, 47.088336598092816 ] } }

]
}
